City,Latitude,Longitude,Maximum Temp,Humidity,Clouds,Wind Speed,Country,Date
sioux lookout,50.1,-91.92,69.8,49,40,10.29,CA,1597077060
asfi,32.3,-9.24,73.63,74,48,20.54,MA,1597077158
tateyama,34.98,139.87,84.0,89,5,4.0,JP,1597077158
vostok,46.49,135.88,60.4,100,83,3.69,RU,1597077158
rikitea,-23.12,-134.97,69.84,74,47,19.33,PF,1597077051
ancud,-41.87,-73.82,46.99,81,40,5.82,CL,1597077158
ribeira grande,38.52,-28.7,77.0,57,20,18.34,PT,1597077158
west wendover,40.74,-114.07,80.6,21,1,3.04,US,1597077159
juneau,58.3,-134.42,53.01,87,90,12.75,US,1597077159
punta arenas,-53.15,-70.92,32.0,74,40,20.8,CL,1597077126
ponta do sol,32.67,-17.1,77.0,61,40,17.22,PT,1597077048
pineville,31.32,-92.43,90.0,66,20,4.7,US,1597077159
vaini,-21.2,-175.2,71.6,78,40,5.82,TO,1597077159
port lincoln,-34.73,135.87,53.76,79,100,19.24,AU,1597077159
santa cruz,-17.8,-63.17,87.8,48,20,23.04,BO,1597077159
nicolas bravo,18.45,-88.92,80.6,88,75,5.82,MX,1597077159
san carlos de bariloche,-41.15,-71.31,35.6,55,75,18.34,AR,1597077159
shobara,34.85,133.02,77.0,94,43,3.65,JP,1597077159
nanakuli,21.39,-158.15,78.01,73,20,4.7,US,1597077159
georgetown,5.41,100.34,84.2,88,20,4.85,MY,1597076920
ushuaia,-54.8,-68.3,33.8,74,75,3.36,AR,1597076897
port alfred,-33.59,26.89,58.46,74,0,11.32,ZA,1597077159
ocampo,21.65,-101.5,62.1,77,100,5.59,MX,1597077159
aklavik,68.22,-135.01,44.6,100,90,4.7,CA,1597077159
hobart,-42.88,147.33,37.99,93,0,8.05,AU,1597076947
qaanaaq,77.48,-69.36,42.62,59,61,7.16,GL,1597077160
ambilobe,-13.2,49.05,68.85,79,71,3.06,MG,1597077160
jamestown,42.1,-79.24,82.99,65,40,12.75,US,1597076891
krapivinskiy,55.0,86.81,71.6,56,0,6.71,RU,1597077160
carnarvon,-24.87,113.63,62.6,100,75,12.75,AU,1597077160
loandjili,-4.76,11.86,78.8,74,40,9.17,CG,1597077160
imbituba,-28.24,-48.67,78.8,50,0,10.29,BR,1597077160
palora,-1.7,-77.93,78.8,61,20,4.7,EC,1597077160
sorland,67.67,12.69,57.2,71,63,6.93,NO,1597077160
bredasdorp,-34.53,20.04,60.8,67,0,5.82,ZA,1597077160
mataura,-46.19,168.86,46.99,90,83,10.0,NZ,1597077160
albany,42.6,-73.97,88.0,61,3,2.24,US,1597077042
new norfolk,-42.78,147.06,35.01,90,0,3.06,AU,1597077160
caibarien,22.52,-79.47,89.6,62,75,11.41,CU,1597077161
luanda,-8.84,13.23,77.0,69,20,8.05,AO,1597077056
nanortalik,60.14,-45.24,43.61,73,1,16.26,GL,1597077161
cape town,-33.93,18.42,57.99,82,40,14.99,ZA,1597076997
santiago,-33.46,-70.65,55.0,81,76,4.38,CL,1597077125
provideniya,64.38,-173.3,49.51,92,97,6.4,RU,1597077161
yellowknife,62.46,-114.35,64.4,77,75,11.41,CA,1597077096
gorom-gorom,14.44,-0.24,86.16,59,97,1.72,BF,1597077161
lingyuan,41.24,119.4,70.09,39,0,4.43,CN,1597077161
vorukh,39.85,70.58,71.28,42,32,2.93,TJ,1597077161
norman wells,65.28,-126.83,62.6,72,20,5.82,CA,1597077161
hithadhoo,-0.6,73.08,82.24,81,97,15.77,MV,1597077161
severo-kurilsk,50.68,156.12,50.36,90,45,3.24,RU,1597077161
bilibino,68.05,166.44,49.06,76,97,3.06,RU,1597077161
tuatapere,-46.13,167.68,46.99,90,66,10.0,NZ,1597077161
puerto ayora,-0.74,-90.35,73.4,73,40,16.11,EC,1597077054
les cayes,18.2,-73.75,88.54,62,73,8.21,HT,1597077162
torbay,47.67,-52.73,82.99,57,20,11.41,CA,1597077162
zaozerne,45.16,33.28,80.46,45,5,10.47,UA,1597077162
bluff,-46.6,168.33,46.99,90,93,10.0,NZ,1597077058
kaitangata,-46.28,169.85,48.99,63,79,13.0,NZ,1597077162
san cristobal,7.77,-72.22,89.6,43,40,20.8,VE,1597077162
slave lake,55.28,-114.77,60.8,55,75,26.4,CA,1597077162
bengkulu,-3.8,102.27,78.22,89,68,5.61,ID,1597077162
mahina,-17.51,-149.49,73.4,73,75,3.36,PF,1597077162
naze,28.37,129.48,84.2,89,75,6.93,JP,1597077162
rudiskes,54.52,24.83,78.8,50,75,12.75,LT,1597077162
changping,40.22,116.22,86.0,88,0,2.24,CN,1597077162
korla,41.76,86.15,72.7,49,0,17.02,CN,1597077162
rawson,-43.3,-65.1,44.94,54,55,36.48,AR,1597077050
sagua la grande,22.81,-80.08,89.6,62,75,11.41,CU,1597077163
coquimbo,-29.95,-71.34,57.2,76,100,6.93,CL,1597077096
lebyazhye,55.27,66.49,61.02,90,89,1.39,RU,1597077163
dikson,73.51,80.55,40.84,94,73,16.62,RU,1597077076
tabas,33.6,56.92,102.2,12,0,6.93,IR,1597077163
umm lajj,25.02,37.27,90.43,47,43,8.72,SA,1597077163
avera,33.19,-82.53,86.0,70,1,6.93,US,1597077163
busselton,-33.65,115.33,55.99,78,98,19.86,AU,1597077163
bethel,41.37,-73.41,91.0,51,1,4.07,US,1597077163
narsaq,60.92,-46.05,53.6,54,20,9.17,GL,1597077163
cidreira,-30.18,-50.21,77.36,47,0,7.52,BR,1597077067
parsabad,39.65,47.92,80.6,61,20,11.41,IR,1597077163
lompoc,34.64,-120.46,55.99,100,0,3.36,US,1597076985
constitucion,-35.33,-72.42,53.78,58,2,13.65,CL,1597077164
kapaa,22.08,-159.32,78.8,69,1,19.46,US,1597077058
humberto de campos,-2.6,-43.46,91.26,46,64,2.21,BR,1597077049
tsiroanomandidy,-18.77,46.03,65.19,77,54,5.37,MG,1597077164
tiksi,71.69,128.87,37.24,86,74,6.02,RU,1597077061
mabaruma,8.2,-59.78,83.21,89,71,4.07,GY,1597077164
vila franca do campo,37.72,-25.43,73.4,83,40,8.05,PT,1597077081
iqaluit,63.75,-68.51,39.2,86,75,8.05,CA,1597077164
airai,-8.93,125.41,58.71,100,81,1.45,TL,1597077164
japura,-0.32,102.35,76.39,94,43,1.95,ID,1597077164
talnakh,69.49,88.4,51.8,100,90,6.71,RU,1597077164
senneterre,48.38,-77.23,78.8,69,75,11.41,CA,1597077164
baghdad,33.34,44.4,102.2,20,0,16.11,IQ,1597076993
kenai,60.55,-151.26,55.0,81,90,9.17,US,1597077165
alofi,-19.06,-169.92,69.8,83,40,6.93,NU,1597077085
daoukro,7.06,-3.96,81.01,74,76,4.03,CI,1597077165
lumby,50.25,-118.97,60.01,77,0,3.36,CA,1597077165
surt,31.21,16.59,81.23,66,0,14.9,LY,1597077165
cabo san lucas,22.89,-109.91,84.0,74,75,17.22,MX,1597077003
vao,-22.67,167.48,69.58,87,100,7.47,NC,1597077108
chuy,-33.7,-53.46,71.22,68,18,9.62,UY,1597077165
axim,4.87,-2.24,76.86,78,88,9.78,GH,1597077165
buala,-8.14,159.59,80.64,78,93,6.87,SB,1597077165
suhbaatar,50.23,106.21,56.93,82,0,2.3,MN,1597077165
aden,12.78,45.04,91.4,59,24,7.67,YE,1597077115
buin,-33.73,-70.75,55.0,81,57,7.99,CL,1597077165
aykhal,66.0,111.5,50.0,100,90,4.47,RU,1597077165
lamlash,55.53,-5.13,69.8,68,20,5.82,GB,1597077165
faanui,-16.48,-151.75,77.72,66,2,8.23,PF,1597077166
kommunisticheskiy,61.68,64.48,54.07,88,100,13.38,RU,1597077166
sao joao da barra,-21.64,-41.05,80.6,54,20,16.11,BR,1597077166
tasiilaq,65.61,-37.64,41.0,86,90,14.99,GL,1597077166
lebu,-37.62,-73.65,48.88,60,28,16.37,CL,1597077166
karasburg,-28.02,18.75,60.39,30,0,8.46,NA,1597077166
hami,42.8,93.45,82.92,25,92,8.28,CN,1597077037
mersing,2.43,103.84,78.8,94,6,5.82,MY,1597077166
beloha,-25.17,45.05,64.38,72,0,7.76,MG,1597077166
thompson,55.74,-97.86,59.0,93,75,10.29,CA,1597077069
gemena,3.25,19.77,74.44,88,92,0.69,CD,1597077166
hilo,19.73,-155.09,71.6,78,90,4.7,US,1597077057
vanavara,60.34,102.28,60.37,64,3,2.19,RU,1597077166
kashi,39.45,75.98,87.01,68,60,17.6,CN,1597077166
jiaojiang,28.68,121.44,82.0,59,0,5.3,CN,1597077167
praia da vitoria,38.73,-27.07,77.0,65,20,13.51,PT,1597077167
fairbanks,64.84,-147.72,53.6,87,1,4.7,US,1597077167
butaritari,3.07,172.79,82.15,77,97,14.94,KI,1597077167
east london,-33.02,27.91,63.27,60,0,15.93,ZA,1597077111
mata de sao joao,-12.53,-38.3,80.6,65,40,9.17,BR,1597077167
weifang,36.71,119.1,77.22,87,0,6.29,CN,1597077167
kodiak,57.79,-152.41,52.11,76,0,7.52,US,1597077167
diffa,13.32,12.61,86.86,56,67,10.8,NE,1597077167
havre-saint-pierre,50.23,-63.6,75.2,64,1,8.05,CA,1597077167
lagoa,39.05,-27.98,70.68,70,58,12.39,PT,1597077167
wasilla,61.58,-149.44,55.4,93,20,2.98,US,1597077167
sandakan,5.84,118.12,80.6,83,20,4.7,MY,1597077168
riviera beach,26.78,-80.06,91.99,66,40,11.41,US,1597077168
waingapu,-9.66,120.26,76.05,81,10,0.45,ID,1597077100
mahebourg,-20.41,57.7,68.0,68,40,9.17,MU,1597077168
ahipara,-35.17,173.17,56.57,94,100,12.53,NZ,1597077168
champerico,14.3,-91.92,84.2,70,75,4.7,GT,1597077168
portland,45.52,-122.68,72.0,55,1,3.74,US,1597077168
walvis bay,-22.96,14.51,59.0,72,0,6.93,NA,1597077168
samarai,-10.62,150.67,78.03,89,37,9.57,PG,1597077109
kruisfontein,-34.0,24.73,59.0,59,0,0.69,ZA,1597077065
pisco,-13.7,-76.22,62.01,87,90,5.82,PE,1597077168
saint george,37.1,-113.58,86.0,14,1,5.82,US,1597076979
salinopolis,-0.61,-47.36,83.84,72,29,12.8,BR,1597077168
soe,-9.86,124.28,63.72,100,63,3.58,ID,1597077168
west point,33.61,-88.65,89.6,66,1,4.7,US,1597076923
wadi musa,30.32,35.48,69.4,59,96,9.62,JO,1597077168
nalgonda,17.05,79.27,75.51,84,99,9.86,IN,1597077168
saint-pierre,-21.34,55.48,66.2,63,75,4.7,RE,1597077169
castro,-24.79,-50.01,73.51,44,0,8.63,BR,1597077047
homer,59.64,-151.55,54.0,93,40,4.7,US,1597077169
kondinskoye,59.65,67.41,67.64,83,7,10.33,RU,1597077124
porto novo,6.5,2.6,77.0,88,40,13.87,BJ,1597077169
saskylakh,71.92,114.08,39.36,74,19,6.02,RU,1597077048
te anau,-45.42,167.72,39.67,86,32,4.23,NZ,1597077169
mallaig,54.22,-111.37,60.28,59,61,22.06,CA,1597077169
mogadishu,2.04,45.34,75.79,77,40,17.81,SO,1597077169
quelimane,-17.88,36.89,77.0,47,20,4.7,MZ,1597077169
hermanus,-34.42,19.23,57.0,79,5,13.8,ZA,1597077169
challapata,-18.9,-66.77,57.45,22,0,8.63,BO,1597077169
trujillo,-8.12,-79.03,67.05,65,39,8.61,PE,1597077169
asyut,27.18,31.18,102.2,22,100,16.11,EG,1597077169
khatanga,71.97,102.5,42.17,74,32,6.33,RU,1597077169
shirochanka,46.65,38.4,78.98,41,0,8.39,RU,1597077169
marietta,33.95,-84.55,91.99,55,20,6.93,US,1597077170
sao sebastiao do paraiso,-20.92,-46.99,78.3,32,0,5.61,BR,1597077170
ocara,-4.49,-38.6,92.05,37,3,8.23,BR,1597077170
tigre,-34.43,-58.58,62.6,31,0,19.46,AR,1597077170
radomsko,51.07,19.44,84.0,54,11,55.99,PL,1597077170
saldanha,-33.01,17.94,62.6,59,0,6.93,ZA,1597077097
alenquer,-1.94,-54.74,89.6,66,20,11.41,BR,1597077170
mocajuba,-2.58,-49.51,94.91,36,72,3.42,BR,1597077170
badarpur,24.9,92.6,78.69,91,100,1.32,IN,1597077170
grand gaube,-20.01,57.66,66.99,70,78,3.0,MU,1597077170
oksbol,55.63,8.29,84.2,39,8,6.93,DK,1597077170
kitimat,54.05,-128.65,55.4,87,75,11.41,CA,1597076996
baza,37.49,-2.77,88.0,31,97,6.17,ES,1597077170
santo tomas,14.11,121.14,81.0,78,100,4.7,PH,1597077171
brae,60.4,-1.35,59.0,82,20,8.05,GB,1597077171
northam,51.03,-4.22,73.0,84,82,3.0,GB,1597077171
whitianga,-36.83,175.7,51.01,97,100,1.01,NZ,1597077171
adrar,20.5,-10.07,108.09,13,42,1.74,MR,1597077171
sitka,57.05,-135.33,53.6,87,90,11.41,US,1597077171
half moon bay,37.46,-122.43,69.01,88,90,5.64,US,1597077171
clyde river,70.47,-68.59,42.8,81,90,10.29,CA,1597077171
cockburn town,21.46,-71.14,87.8,62,40,9.17,TC,1597077010
karsun,54.2,46.98,57.76,69,41,5.41,RU,1597077171
avarua,-21.21,-159.78,71.6,73,0,6.93,CK,1597077047
shitanjing,39.23,106.34,75.6,45,50,6.24,CN,1597077171
myitkyina,25.38,97.4,74.05,96,100,1.61,MM,1597077171
henties bay,-22.12,14.28,55.99,86,0,3.0,NA,1597077171
aswan,24.09,32.91,102.09,14,81,9.86,EG,1597077090
terney,45.05,136.61,64.31,92,88,1.41,RU,1597077171
poum,-20.23,164.02,72.54,81,100,13.2,NC,1597077079
otane,-39.88,176.63,46.0,78,25,2.37,NZ,1597077171
ramhormoz,31.28,49.6,105.8,13,0,18.34,IR,1597077172
saint-philippe,-21.36,55.77,66.2,63,75,4.7,RE,1597077172
taltal,-25.4,-70.48,62.67,61,23,5.08,CL,1597077172
barrow,71.29,-156.79,39.2,93,90,8.05,US,1597076889
atuona,-9.8,-139.03,78.85,68,4,20.45,PF,1597077172
lorengau,-2.02,147.27,80.78,74,85,4.23,PG,1597077172
siyabuswa,-25.11,29.04,56.73,34,0,3.27,ZA,1597077172
sur,22.57,59.53,84.38,74,2,9.46,OM,1597077099
ust-uda,54.17,103.03,63.05,66,99,3.69,RU,1597077172
ginda,30.69,78.49,67.82,89,96,0.85,IN,1597077172
wanning,18.8,110.4,83.28,83,57,9.44,CN,1597077172
van,38.49,43.38,75.2,44,20,4.7,TR,1597077172
college,64.86,-147.8,53.6,76,90,3.36,US,1597077005
zaterechnyy,44.79,45.21,80.1,28,78,8.61,RU,1597077172
nouadhibou,20.93,-17.03,78.8,65,0,20.8,MR,1597076959
laguna,38.42,-121.42,75.99,52,0,1.01,US,1597077172
uvat,59.14,68.9,65.68,86,15,6.4,RU,1597077172
ramsar,36.92,50.64,80.6,83,75,2.24,IR,1597077173
sugod,12.99,124.08,81.12,80,87,2.19,PH,1597077173
rio gallegos,-51.62,-69.22,35.6,64,40,23.04,AR,1597077052
namibe,-15.2,12.15,64.78,77,14,7.09,AO,1597077173
ziarat,30.38,67.73,68.63,73,12,5.44,PK,1597077173
nouakchott,18.09,-15.98,84.2,66,40,14.99,MR,1597077173
rabo de peixe,37.8,-25.58,73.4,83,40,8.05,PT,1597077173
darhan,49.49,105.92,57.49,79,5,2.46,MN,1597077173
high level,58.52,-117.14,59.0,72,75,4.7,CA,1597077173
kulhudhuffushi,6.62,73.07,82.6,77,48,15.55,MV,1597077065
codrington,-38.27,141.97,44.06,84,90,10.96,AU,1597077173
miranda,3.25,-76.23,84.2,58,20,2.24,CO,1597077173
kutum,14.2,24.67,73.22,65,99,5.88,SD,1597077173
taoudenni,22.68,-3.98,109.71,8,0,22.95,ML,1597077173
manyana,-23.4,21.72,60.04,32,0,4.18,BW,1597077173
jertih,5.73,102.49,78.8,88,40,3.36,MY,1597077173
tuktoyaktuk,69.45,-133.04,46.4,81,75,8.05,CA,1597077173
seoul,37.57,126.98,77.0,100,90,5.73,KR,1597077158
pocri,8.27,-80.55,84.2,79,40,4.7,PA,1597077174
along,28.17,94.77,75.04,90,100,1.77,IN,1597077174
sabzevar,36.21,57.68,86.95,19,0,13.31,IR,1597077174
nikolskoye,59.7,30.79,68.0,45,40,15.66,RU,1597077174
ruwi,23.6,58.55,89.6,79,40,5.82,OM,1597077174
ballina,-28.87,153.57,57.2,58,40,11.41,AU,1597077174
arraial do cabo,-22.97,-42.03,82.4,48,0,16.11,BR,1597077046
pangnirtung,66.15,-65.71,46.4,75,90,4.7,CA,1597077110
abu kamal,34.45,40.92,88.83,25,0,6.64,SY,1597077174
vilhena,-12.74,-60.15,84.2,39,0,10.29,BR,1597077174
najran,17.49,44.13,95.0,16,40,9.17,SA,1597077174
zemio,5.03,25.14,72.82,93,98,1.12,CF,1597077174
leningradskiy,69.38,178.42,42.46,81,100,9.26,RU,1597077174
burnie,-41.07,145.92,42.01,88,2,1.99,AU,1597077174
bathsheba,13.22,-59.52,87.8,70,40,17.22,BB,1597077174
oranjestad,12.52,-70.03,89.6,66,40,19.46,AW,1597077004
ostrovnoy,68.05,39.51,49.75,81,99,10.71,RU,1597077174
eppelborn,49.4,6.97,93.99,30,90,1.01,DE,1597077174
okhotsk,59.38,143.3,56.59,89,80,6.69,RU,1597077124
egvekinot,66.32,-179.17,45.18,98,81,1.52,RU,1597077174
bathurst,-33.42,149.58,39.99,88,67,21.99,AU,1597077092
mudgee,-32.59,149.59,42.8,100,90,4.7,AU,1597077175
nome,64.5,-165.41,35.6,80,1,3.36,US,1597076900
nabire,-3.37,135.48,76.06,88,96,3.49,ID,1597077175
sapa,5.15,120.32,82.51,83,45,8.84,PH,1597077175
ordzhonikidze,52.44,61.74,62.13,82,4,4.03,KZ,1597077175
santa maria da vitoria,-13.39,-44.19,92.62,20,0,4.16,BR,1597077175
bambous virieux,-20.34,57.76,68.0,68,40,9.17,MU,1597077054
presidencia roque saenz pena,-26.79,-60.44,93.02,22,39,11.48,AR,1597077175
newcastle,-32.93,151.78,51.8,100,40,11.41,AU,1597077145
hobyo,5.35,48.53,75.7,73,34,29.66,SO,1597077175
tual,-5.67,132.75,78.46,85,21,15.28,ID,1597077175
taloc,10.57,122.9,80.26,79,100,2.66,PH,1597077175
silistea,44.38,25.35,86.0,39,50,7.0,RO,1597077175
la libertad,-2.23,-80.9,68.0,82,90,5.82,EC,1597077175
flin flon,54.77,-101.86,62.6,72,90,19.46,CA,1597077175
pokhara,28.23,83.98,73.4,78,100,2.28,NP,1597077175
tambovka,50.1,128.05,62.6,93,20,6.71,RU,1597077176
rudnichnyy,59.62,52.47,53.55,77,47,6.13,RU,1597077176
luderitz,-26.65,15.16,62.6,63,0,17.22,NA,1597077047
guerrero negro,27.98,-114.06,79.93,48,0,10.42,MX,1597077176
oktyabrskiy,54.48,53.47,58.64,74,100,8.12,RU,1597077108
grindavik,63.84,-22.43,51.8,100,75,26.4,IS,1597076944
dwarka,22.24,68.97,83.77,83,83,19.08,IN,1597077176
kavieng,-2.57,150.8,81.45,72,54,2.59,PG,1597077053
port elizabeth,-33.92,25.57,57.2,71,0,8.05,ZA,1597077055
somerset,40.57,-74.55,91.99,58,1,5.26,US,1597077176
olafsvik,64.89,-23.71,51.53,94,100,21.81,IS,1597077176
victoria,22.29,114.16,86.0,80,100,10.49,HK,1597077176
haapiti,-17.57,-149.87,73.4,73,75,3.36,PF,1597077176
muros,42.78,-9.06,73.99,69,98,7.0,ES,1597077176
riyadh,24.69,46.72,100.4,10,0,14.99,SA,1597077118
malindi,-3.22,40.12,75.2,83,20,5.82,KE,1597077176
lazaro cardenas,17.96,-102.2,88.83,60,92,3.22,MX,1597077001
xiongzhou,25.12,114.3,79.54,74,89,3.4,CN,1597077176
tucurui,-3.77,-49.67,92.77,37,15,5.19,BR,1597077042
anloga,5.79,0.9,80.6,74,20,16.11,GH,1597077176
mar del plata,-38.0,-57.56,55.99,66,40,12.75,AR,1597076958
gidam,18.98,81.4,72.16,93,100,4.36,IN,1597077176
eureka,40.8,-124.16,59.0,19,0,1.01,US,1597077176
longyearbyen,78.22,15.64,48.2,81,75,12.75,SJ,1597077054
lavrentiya,65.58,-171.0,47.79,77,41,2.48,RU,1597077177
salalah,17.02,54.09,78.8,88,90,4.7,OM,1597077177
dongsheng,39.82,109.98,72.91,35,31,8.3,CN,1597077088
aitape,-3.14,142.35,77.09,86,56,3.91,PG,1597077177
klaksvik,62.23,-6.59,57.2,87,75,11.41,FO,1597077177
mogok,22.92,96.5,67.64,100,100,3.85,MM,1597077177
yumen,40.28,97.2,69.15,27,38,6.31,CN,1597077177
bytosh,53.82,34.09,78.8,39,20,4.47,RU,1597077177
saint-augustin,51.23,-58.65,72.39,63,13,14.43,CA,1597077177
gat,31.61,34.76,84.0,61,40,9.17,IL,1597077177
ibra,22.69,58.53,88.99,55,6,12.06,OM,1597077177
karratha,-20.74,116.85,66.81,70,0,9.46,AU,1597077177
manyoni,-5.75,34.84,73.98,34,2,6.24,TZ,1597076900
plettenberg bay,-34.05,23.37,55.96,71,0,5.53,ZA,1597077177
fairhope,30.52,-87.9,91.0,66,1,4.7,US,1597077177
port hardy,50.7,-127.42,59.0,77,75,16.11,CA,1597077042
guarapari,-20.67,-40.5,78.8,69,75,12.75,BR,1597077177
namatanai,-3.67,152.43,78.66,77,51,2.21,PG,1597077178
shaoguan,24.8,113.58,79.7,77,99,2.51,CN,1597077178
ilulissat,69.22,-51.1,41.0,75,40,9.17,GL,1597077178
golubitskaya,45.32,37.28,84.0,42,30,15.66,RU,1597077178
alihe,50.57,123.72,58.17,89,96,2.57,CN,1597077178
fereydun kenar,36.69,52.52,80.6,65,20,4.7,IR,1597077178
espanola,35.99,-106.08,77.0,19,1,3.36,US,1597077178
mehamn,71.04,27.85,50.0,87,75,16.11,NO,1597077178
araouane,18.9,-3.53,106.84,8,18,8.77,ML,1597077178
davila,18.47,120.58,78.8,94,75,9.17,PH,1597077178
yar-sale,66.83,70.83,52.27,95,100,15.95,RU,1597077178
kamaishi,39.27,141.88,76.78,68,91,6.13,JP,1597077178
mackenzie,55.3,-123.17,57.2,54,40,6.93,CA,1597076943
necochea,-38.55,-58.74,53.01,56,0,8.99,AR,1597077179
pevek,69.7,170.31,41.5,89,100,4.34,RU,1597077179
alekseyevsk,57.84,108.35,60.26,65,93,3.47,RU,1597077179
praia,14.92,-23.51,84.2,66,40,4.7,CV,1597077179
puerto escondido,15.85,-97.07,84.2,66,90,4.45,MX,1597077179
bagdarin,54.43,113.6,54.12,85,100,2.89,RU,1597077179
itoman,26.12,127.67,84.2,89,75,12.75,JP,1597077179
san patricio,19.22,-104.7,87.8,74,40,6.06,MX,1597077179
souillac,-20.52,57.52,68.0,68,40,9.17,MU,1597077108
ushtobe,45.25,77.98,76.12,31,6,8.43,KZ,1597077179
south venice,27.05,-82.42,91.0,62,20,2.1,US,1597077179
makakilo city,21.35,-158.09,78.8,73,20,4.7,US,1597077179
fortuna,40.6,-124.16,59.0,86,0,1.01,US,1597077180
kalabo,-14.97,22.68,72.86,20,0,5.95,ZM,1597077180
krasnyy oktyabr,56.12,38.88,64.72,85,65,2.51,RU,1597077180
barcelos,41.54,-8.62,73.0,77,20,6.93,PT,1597077180
gizo,-8.1,156.84,81.82,76,84,7.74,SB,1597077180
longhua,23.61,114.19,79.41,83,100,1.97,CN,1597077180
saint-georges,12.06,-61.75,87.8,70,20,20.8,GD,1597077180
siavonga,-16.54,28.71,70.32,44,0,2.04,ZM,1597077180
kattivakkam,13.22,80.32,84.2,79,75,6.93,IN,1597077180
rudbar,30.15,62.6,98.13,9,1,16.67,AF,1597076969
cherskiy,68.75,161.3,38.68,87,100,17.78,RU,1597077180
tura,25.52,90.22,77.18,91,100,6.35,IN,1597077126
elko,41.0,-115.5,75.0,26,1,4.7,US,1597077180
maniitsoq,65.42,-52.9,42.03,71,64,7.49,GL,1597077080
saint anthony,45.02,-93.22,73.4,56,1,9.17,US,1597077180
naberera,-4.2,36.93,65.53,60,68,13.13,TZ,1597077180
ondjiva,-17.07,15.73,73.24,20,0,2.62,AO,1597077180
deloraine,-41.53,146.67,37.4,100,90,4.7,AU,1597077180
broome,42.25,-75.83,84.0,61,20,3.36,US,1597076990
shakhunya,57.68,46.61,53.69,82,50,3.78,RU,1597077180
elk city,35.41,-99.4,89.6,38,1,19.46,US,1597077181
khasan,42.43,130.64,70.21,94,100,5.1,RU,1597077181
mount gambier,-37.83,140.77,50.0,76,100,8.05,AU,1597077181
esperance,-33.87,121.9,55.4,87,75,14.99,AU,1597077181
sechura,-5.56,-80.82,72.97,54,1,7.47,PE,1597077181
seoni malwa,22.45,77.47,78.03,90,100,11.43,IN,1597077181
bud,39.45,-86.18,78.01,88,40,5.28,US,1597077181
farafangana,-22.82,47.83,65.97,79,0,10.22,MG,1597077181
la antigua,6.72,-76.08,73.11,72,66,2.68,CO,1597077181
haines junction,60.75,-137.51,48.76,84,100,2.17,CA,1597077181
fukue,32.69,128.84,82.38,88,9,17.52,JP,1597077181
rembang,-6.71,111.35,77.67,77,77,5.86,ID,1597077182
kysyl-syr,63.9,122.76,46.4,90,56,3.83,RU,1597077182
sedhiou,12.71,-15.56,80.6,94,75,4.7,SN,1597077182
chapais,49.78,-74.85,77.0,61,1,13.87,CA,1597076987
udomlya,57.88,34.99,63.25,87,100,7.05,RU,1597077126
shahpura,27.38,75.97,80.6,100,75,7.56,IN,1597077182
teguise,29.06,-13.56,80.6,57,20,20.8,ES,1597077182
richards bay,-28.78,32.04,63.36,59,0,5.7,ZA,1597077144
sucua,-2.47,-78.17,77.0,57,20,5.82,EC,1597077182
wanaka,-44.7,169.15,38.8,75,10,4.61,NZ,1597077182
betma,22.68,75.62,78.8,88,40,3.36,IN,1597077182
borskoye,53.03,51.72,58.75,76,38,10.54,RU,1597077182
prince rupert,54.32,-130.32,55.4,93,90,3.36,CA,1597077057
teahupoo,-17.83,-149.27,73.4,73,75,3.36,PF,1597077183
atasu,48.68,71.64,75.88,21,71,10.25,KZ,1597077183
xinzhou,38.41,112.73,69.89,72,1,1.63,CN,1597077183
troitskoye,52.98,84.68,64.96,77,60,7.38,RU,1597077183
camacha,33.08,-16.33,77.0,69,40,14.99,PT,1597077183
marinette,45.1,-87.63,77.0,94,75,5.82,US,1597077181
venado tuerto,-33.75,-61.97,63.0,22,0,23.0,AR,1597077183
ambon,-3.7,128.18,78.82,85,96,6.44,ID,1597077183
penzance,50.12,-5.54,71.01,82,75,17.22,GB,1597077098
mamlyutka,54.94,68.54,61.75,96,70,5.77,KZ,1597077183
maldonado,-34.67,-54.92,59.0,84,23,5.99,UY,1597077183
ivaipora,-24.25,-51.68,81.52,28,0,5.99,BR,1597077183
la romana,18.43,-68.97,91.4,70,75,11.41,DO,1597077183
nova olinda do norte,-3.89,-59.09,100.58,24,0,3.87,BR,1597077183
kirakira,-10.45,161.92,78.73,84,54,9.35,SB,1597077183
stara moravica,45.87,19.47,86.0,48,20,5.82,RS,1597077183
kaeo,-35.1,173.78,55.99,3,100,8.99,NZ,1597077183
gornyy,55.12,83.91,64.11,77,3,3.42,RU,1597077183
yarada,17.65,83.27,80.6,83,75,8.05,IN,1597077077
upernavik,72.79,-56.15,41.63,70,5,6.4,GL,1597077184
mount isa,-20.73,139.5,44.6,70,0,7.83,AU,1597077057
pyapon,16.28,95.68,80.35,87,100,7.11,MM,1597077184
bara,10.37,10.73,80.2,75,99,8.32,NG,1597077184
montceau-les-mines,46.67,4.37,82.4,54,16,8.05,FR,1597077184
santa marta,11.24,-74.2,93.2,67,40,8.05,CO,1597076921
tezu,27.92,96.17,76.57,86,100,2.64,IN,1597077184
itarema,-2.92,-39.92,87.4,51,0,17.74,BR,1597077184
tecolutla,20.48,-97.02,84.2,74,75,8.14,MX,1597077184
rundu,-17.93,19.77,70.83,22,0,2.35,NA,1597077184
giaveno,45.05,7.35,82.4,58,40,11.41,IT,1597077184
klyuchi,52.27,79.17,66.31,79,54,6.78,RU,1597077184
iberia,29.95,-91.75,89.6,62,1,6.93,US,1597077184
watsa,3.04,29.54,67.3,97,96,1.54,CD,1597077184
dali,25.7,100.18,63.48,87,93,4.97,CN,1597077184
tynda,55.17,124.72,54.52,92,98,4.07,RU,1597077184
bantry,51.68,-9.45,68.0,77,75,4.7,IE,1597077184
andenes,69.31,16.12,57.2,71,40,6.93,NO,1597077184
verkhniy mamon,50.16,40.38,71.6,54,69,3.36,RU,1597077184
robertsport,6.75,-11.37,77.45,79,99,14.2,LR,1597077185
hasaki,35.73,140.83,82.0,94,40,4.7,JP,1597077185
allende,25.28,-100.02,80.6,69,5,8.05,MX,1597077185
hambantota,6.12,81.12,80.6,83,40,9.17,LK,1597077059
geraldton,-28.77,114.6,60.8,72,54,13.87,AU,1597077052
lucea,18.45,-78.17,90.0,66,20,21.92,JM,1597077185
abaete,-19.16,-45.45,78.04,35,49,3.94,BR,1597077185
rocha,-34.48,-54.33,67.91,66,16,11.54,UY,1597077185
shelburne,44.08,-80.2,87.8,55,20,8.05,CA,1597077042
keetmanshoop,-26.58,18.13,69.8,18,0,9.17,NA,1597077185
belgrade,44.8,20.47,84.2,83,40,14.99,RS,1597076918
simao,22.79,100.97,66.34,96,98,1.57,CN,1597077185
roald,62.58,6.13,69.8,68,98,5.82,NO,1597077185
manokwari,-0.87,134.08,79.66,73,6,2.17,ID,1597077185
sawakin,19.11,37.33,95.47,45,21,13.67,SD,1597077185
inuvik,68.35,-133.72,44.6,100,90,4.7,CA,1597077185
petauke,-14.24,31.33,66.67,25,0,7.31,ZM,1597077185
sao filipe,14.9,-24.5,77.16,79,26,8.28,CV,1597077185
road town,18.42,-64.62,89.6,59,40,10.29,VG,1597077185
mosquera,4.71,-74.23,60.8,63,75,13.87,CO,1597076966
mendi,-6.18,143.65,56.39,100,100,1.28,PG,1597077185
yulara,-25.24,130.99,64.4,77,90,6.93,AU,1597077072
paamiut,61.99,-49.67,40.57,82,0,18.59,GL,1597077079
damavand,35.72,52.06,95.0,13,34,4.7,IR,1597077186
north vanlaiphai,23.13,93.07,65.71,100,100,0.63,IN,1597077186
erenhot,43.65,111.98,72.99,28,12,5.91,CN,1597077154
sabha,27.04,14.43,103.59,11,31,8.41,LY,1597077186
maceio,-9.67,-35.74,80.6,51,20,8.05,BR,1597077056
corn island,12.17,-83.04,83.68,81,100,22.26,NI,1597077186
jining,35.41,116.58,77.25,92,0,4.9,CN,1597077186
mattru,7.62,-11.83,79.39,74,85,7.54,SL,1597077186
pingliang,35.54,106.69,69.98,82,100,3.09,CN,1597077186
killybegs,54.63,-8.45,64.4,93,75,4.7,IE,1597077186
cabedelo,-6.98,-34.83,80.6,65,75,17.22,BR,1597077154
rock springs,41.59,-109.2,71.6,19,1,9.95,US,1597077186
ponta delgada,37.73,-25.67,73.4,83,40,8.05,PT,1597077186
lodja,-3.48,23.43,78.57,68,72,2.44,CD,1597077186
mahon,39.89,4.27,84.2,66,21,8.05,ES,1597077057
san francisco,37.77,-122.42,64.99,77,75,4.7,US,1597077135
peniche,39.36,-9.38,73.99,80,100,8.01,PT,1597077186
khlung,12.45,102.22,79.02,87,93,6.89,TH,1597077186
kartaly,53.05,60.65,60.75,88,43,9.22,RU,1597077186
chokurdakh,70.63,147.92,38.82,74,100,6.24,RU,1597077187
nsanje,-16.92,35.26,70.12,29,29,2.44,MW,1597077187
flinders,-34.58,150.86,53.01,85,55,1.01,AU,1597077187
byron bay,-28.65,153.62,57.2,58,40,11.41,AU,1597077098
snezhnogorsk,69.19,33.25,51.8,76,75,4.47,RU,1597077187
port hedland,-20.32,118.57,68.0,77,75,10.29,AU,1597077100
pietersburg,-23.9,29.47,71.6,26,0,8.05,ZA,1597077187
victoria point,-27.58,153.3,55.99,67,0,4.0,AU,1597077187
matara,5.95,80.54,78.91,85,96,9.26,LK,1597077187
coihaique,-45.58,-72.07,41.0,48,40,4.7,CL,1597076943
kloulklubed,7.04,134.26,77.0,94,75,9.33,PW,1597077187
margate,51.38,1.39,93.99,28,49,4.0,GB,1597077187
wattegama,6.8,81.48,80.6,83,40,9.17,LK,1597077187
somerset east,-32.72,25.59,49.91,49,0,1.03,ZA,1597077187
mao,39.89,4.27,84.2,66,21,8.05,ES,1597077187
bratsk,56.13,101.61,62.6,59,65,2.24,RU,1597077187
pecos,31.42,-103.49,89.6,38,1,9.17,US,1597077187
qaqortoq,60.72,-46.03,53.6,54,20,9.17,GL,1597076944
sola,-13.88,167.55,75.2,94,20,13.82,VU,1597077187
kikwit,-5.04,18.82,88.48,37,58,3.98,CD,1597077187
trinidad,-14.83,-64.9,87.8,55,20,11.41,BO,1597077188
maha sarakham,16.18,103.3,80.6,94,75,2.24,TH,1597077188
tautira,-17.73,-149.15,73.4,73,75,3.36,PF,1597077188
evensk,61.95,159.23,47.62,91,16,2.53,RU,1597077188
batemans bay,-35.72,150.18,42.01,92,72,5.44,AU,1597077188
kahului,20.89,-156.47,78.8,65,40,12.75,US,1597077188
baft,29.23,56.61,82.17,27,99,7.18,IR,1597077188
cuacnopalan,18.82,-97.5,70.0,60,76,7.0,MX,1597077188
bahia honda,22.9,-83.16,88.2,64,8,9.6,CU,1597077188
katsuura,35.13,140.3,84.0,89,7,4.0,JP,1597077188
nicoya,10.15,-85.45,84.2,74,75,4.7,CR,1597077188
sardulgarh,29.7,75.25,92.26,58,99,8.37,IN,1597077188
hit,33.64,42.83,91.99,18,12,9.69,IQ,1597077188
qeshm,26.96,56.27,95.0,75,40,9.17,IR,1597077188
wladyslawowo,54.79,18.4,77.0,64,2,10.29,PL,1597077188
nyzhnya duvanka,49.58,38.17,73.78,55,88,7.0,UA,1597077188
bilma,18.69,12.92,101.7,18,40,9.89,NE,1597077070
kalia,23.04,89.63,82.09,90,97,7.4,BD,1597077189
caravelas,-17.71,-39.25,71.2,87,90,6.02,BR,1597077189
hualmay,-11.1,-77.61,66.45,64,49,9.69,PE,1597077063
turukhansk,65.82,87.98,55.99,81,0,8.34,RU,1597077189
ereymentau,51.62,73.1,69.8,53,44,7.94,KZ,1597077189
carutapera,-1.2,-46.02,85.42,64,60,8.84,BR,1597077189
bubaque,11.28,-15.83,78.55,87,100,20.6,GW,1597077189
arman,59.7,150.17,50.63,83,0,2.93,RU,1597077125
papara,-3.98,-38.73,84.2,58,3,14.99,BR,1597077189
teya,60.38,92.63,62.11,53,0,1.23,RU,1597077189
vestmanna,62.16,-7.17,57.2,87,75,11.41,FO,1597077189
bulgan,48.81,103.53,53.26,79,77,1.36,MN,1597077153
badiraguato,25.37,-107.52,89.6,62,40,3.56,MX,1597077189
deogarh,21.53,84.73,80.96,86,94,1.45,IN,1597077189
payson,40.04,-111.73,82.0,11,1,4.7,US,1597077189
hofn,64.25,-15.21,53.6,93,90,9.17,IS,1597077106
ust-maya,60.42,134.53,61.39,67,99,3.47,RU,1597077189
clinton,42.59,-82.92,87.01,66,75,4.7,US,1597077166
at-bashi,41.17,75.81,58.23,46,14,1.95,KG,1597077189
grants,35.15,-107.85,77.0,18,1,3.36,US,1597077189
orange,33.7,-117.77,69.01,77,75,4.7,US,1597076913
baleshwar,21.49,86.93,84.22,83,94,6.93,IN,1597077190
sarai sidhu,30.59,71.97,86.0,84,75,6.93,PK,1597077190
sabirabad,40.01,48.48,80.6,61,20,11.41,AZ,1597077190
vaitape,-16.52,-151.75,78.58,65,2,7.94,PF,1597077190
port blair,11.67,92.75,82.17,85,100,13.11,IN,1597077190
lubyany,56.04,51.4,60.8,67,20,13.42,RU,1597077190
nador,35.17,-2.93,86.0,74,71,5.82,MA,1597077104
fare,-16.7,-151.02,78.17,67,0,6.89,PF,1597077190
vila do maio,15.13,-23.22,84.2,66,40,4.7,CV,1597077190
ahuimanu,21.44,-157.84,78.8,69,40,10.29,US,1597077190
muyezerskiy,63.93,31.65,50.97,89,100,11.23,RU,1597077190
muli,2.92,73.57,82.89,76,100,10.76,MV,1597077190
townsville,-19.25,146.8,55.99,93,0,1.12,AU,1597076935
shaoyang,27.23,111.45,77.38,90,53,1.7,CN,1597077190
totness,5.88,-56.32,83.88,81,45,5.61,SR,1597077190
san quintin,30.48,-115.95,74.86,59,0,11.59,MX,1597077190
tutoia,-2.76,-42.27,89.2,48,2,8.99,BR,1597077191
dunedin,-45.87,170.5,45.0,69,43,10.0,NZ,1597077084
narasannapeta,18.42,84.05,83.05,81,33,5.26,IN,1597077191
launceston,-41.45,147.17,37.4,100,90,4.7,AU,1597077191
labuhan,-6.88,112.21,77.72,83,88,9.17,ID,1597077191
lethem,3.38,-59.8,89.28,60,59,1.32,GY,1597077191
iralaya,15.0,-83.23,80.6,88,90,17.22,HN,1597077191
srednekolymsk,67.45,153.68,40.26,86,97,8.34,RU,1597077191
saint-louis,16.33,-15.0,98.6,42,32,2.24,SN,1597077191
skibbereen,51.55,-9.27,68.0,72,75,2.24,IE,1597077191
izacic,44.88,15.78,84.99,56,4,1.07,BA,1597077191
bay roberts,47.6,-53.26,84.99,62,24,6.78,CA,1597077191
talaya,61.38,152.75,53.49,65,46,6.89,RU,1597077191
markova,48.68,24.41,80.6,51,75,2.24,UA,1597077191
huilong,31.81,121.66,91.0,99,91,14.29,CN,1597077191
banda aceh,5.56,95.32,82.51,70,99,7.4,ID,1597077073
port keats,-14.25,129.55,70.02,84,94,1.07,AU,1597077191
belaya gora,68.53,146.42,39.54,73,76,5.5,RU,1597077192
asandh,29.52,76.6,83.34,83,100,9.26,IN,1597077192
nantucket,41.28,-70.1,78.8,78,75,13.87,US,1597077009
bonavista,48.65,-53.11,69.64,67,0,6.29,CA,1597077192
dashitou,43.31,128.51,66.78,87,100,1.16,CN,1597077192
warrington,53.39,-2.58,82.0,68,20,14.99,GB,1597077192
camana,-16.62,-72.71,64.56,61,47,8.84,PE,1597077192
ust-tsilma,65.44,52.15,49.23,91,75,4.12,RU,1597077192
nelson bay,-32.72,152.15,54.0,100,40,11.41,AU,1597077192
sumbe,-11.21,13.84,73.4,81,25,9.17,AO,1597077192
mongo,12.18,18.69,76.46,83,74,3.0,TD,1597077192
jasper,37.2,-94.35,90.0,58,1,16.11,US,1597077192
biu,10.61,12.19,74.34,84,91,4.65,NG,1597077192
canico,32.63,-16.85,77.0,61,40,17.22,PT,1597077192
yenagoa,4.92,6.26,79.21,71,100,9.13,NG,1597077192
cocal,-28.62,-49.35,84.78,33,0,1.68,BR,1597077192
chernyshevskiy,63.01,112.47,55.42,66,22,7.07,RU,1597077192
okha,53.57,142.95,55.69,95,100,18.21,RU,1597077193
vila,42.03,-8.16,84.0,54,100,5.99,PT,1597077193
taunggyi,20.78,97.03,65.08,100,100,3.89,MM,1597077193
